[{
  "name": "52 Canoes (Grassmarket)",
  "slug": "52-canoes-grassmarket",
  "number": "366",
  "address": "27-31 West Port",
  "postcode": "EH1 2JA",
  "lat": 55.946766,
  "lng": -3.198368
}, {
  "name": "Acoustic Music Centre @ UCC",
  "slug": "acoustic-music-centre-ucc",
  "number": "138",
  "address": "14 Royal Terrace",
  "postcode": "EH7 5AB",
  "lat": 55.956829,
  "lng": -3.178441
}, {
  "name": "Alba Flamenca",
  "slug": "alba-flamenca-2",
  "number": "237",
  "address": "74 East Crosscauseway",
  "postcode": "EH8 9HQ",
  "lat": 55.944,
  "lng": -3.181427
}, {
  "name": "Alpha Art Gallery",
  "slug": "alpha-art-gallery",
  "number": "128",
  "address": "52 Hamilton Place",
  "postcode": "EH3 5AX",
  "lat": 55.959015,
  "lng": -3.207419
}, {
  "name": "Angels Share",
  "slug": "angels-share-1",
  "number": "419",
  "address": "9-11 Hope Street",
  "postcode": "EH24EL",
  "lat": 55.95145,
  "lng": -3.207925
}, {
  "name": "Argyle Cellar Bar",
  "slug": "argyle-cellar-bar",
  "number": "293",
  "address": "The Argyle Cellar Bar",
  "postcode": "Eh91jj",
  "lat": 55.938248,
  "lng": -3.191489
}, {
  "name": "Army @ The Fringe in Association with Summerhall",
  "slug": "army-the-fringe-in-association-with-summerhall-1",
  "number": "210",
  "address": "89 East Claremont Street",
  "postcode": "EH7 4HU",
  "lat": 55.962559,
  "lng": -3.192252
}, {
  "name": "Arthur Conan Doyle Centre",
  "slug": "arthur-conan-doyle-centre",
  "number": "290",
  "address": "25 Palmerston Place",
  "postcode": "EH12 5AP",
  "lat": 55.949104,
  "lng": -3.217968
}, {
  "name": "artSpace@StMarks",
  "slug": "artspace-stmarks",
  "number": "125",
  "address": "7 Castle Terrace",
  "postcode": "EH1 2DP",
  "lat": 55.948048,
  "lng": -3.203677
}, {
  "name": "Assembly at Murrayfield Ice Rink",
  "slug": "assembly-at-murrayfield-ice-rink-1",
  "number": "454",
  "address": "Riversdale Crescent",
  "postcode": "EH12 5XN",
  "lat": 55.943165,
  "lng": -3.243427
}, {
  "name": "Assembly Checkpoint",
  "slug": "assembly-checkpoint",
  "number": "322",
  "address": "3 Bristo Place",
  "postcode": "EH1 1EY",
  "lat": 55.946228,
  "lng": -3.189989
}, {
  "name": "Assembly George Square Gardens",
  "slug": "assembly-george-square-gardens",
  "number": "3",
  "address": "George Square",
  "postcode": "EH8 9LH",
  "lat": 55.943905,
  "lng": -3.188397
}, {
  "name": "Assembly George Square Studios",
  "slug": "assembly-george-square-studios",
  "number": "17",
  "address": "George Square",
  "postcode": "EH8 9LH",
  "lat": 55.943905,
  "lng": -3.188397
}, {
  "name": "Assembly George Square Theatre",
  "slug": "assembly-george-square-theatre",
  "number": "8",
  "address": "George Square",
  "postcode": "EH8 9LH",
  "lat": 55.943905,
  "lng": -3.188397
}, {
  "name": "Assembly Hall",
  "slug": "assembly-hall",
  "number": "35",
  "address": "Mound Place",
  "postcode": "EH1 2LU",
  "lat": 55.94981,
  "lng": -3.195277
}, {
  "name": "Assembly High",
  "slug": "assembly-high",
  "number": "540",
  "address": "10 Bowmont Place",
  "postcode": "EH8 9RY",
  "lat": 55.944187,
  "lng": -3.179489
}, {
  "name": "Assembly Rooms",
  "slug": "assembly-rooms-1",
  "number": "20",
  "address": "54 George Street",
  "postcode": "EH2 2LR",
  "lat": 55.953171,
  "lng": -3.198794
}, {
  "name": "Assembly Roxy",
  "slug": "assembly-roxy",
  "number": "139",
  "address": "2 Roxburgh Place",
  "postcode": "EH8 9SU",
  "lat": 55.947453,
  "lng": -3.184273
}, {
  "name": "ATIK",
  "slug": "atik",
  "number": "464",
  "address": "3 West Tollcross",
  "postcode": "EH3 9BP",
  "lat": 55.943596,
  "lng": -3.204523
}, {
  "name": "Bannermans",
  "slug": "bannermans",
  "number": "357",
  "address": "212 Cowgate",
  "postcode": "EH1 1NQ",
  "lat": 55.948818,
  "lng": -3.186553
}, {
  "name": "Banshee Labyrinth",
  "slug": "banshee-labyrinth",
  "number": "156",
  "address": "29-35 Niddry Street",
  "postcode": "EH1 1LG",
  "lat": 55.949398,
  "lng": -3.186839
}, {
  "name": "Bar Bados Complex",
  "slug": "bar-bados-complex",
  "number": "32",
  "address": "65 Cowgate",
  "postcode": "EH1 1JW",
  "lat": 55.948154,
  "lng": -3.192099
}, {
  "name": "Bedlam Theatre",
  "slug": "bedlam-theatre-2",
  "number": "49",
  "address": "11b Bristo Place",
  "postcode": "EH1 1EZ",
  "lat": 55.946293,
  "lng": -3.190716
}, {
  "name": "Birch Tree Gallery",
  "slug": "birch-tree-gallery",
  "number": "525",
  "address": "23a Dundas Street",
  "postcode": "EH3 6QQ",
  "lat": 55.957035,
  "lng": -3.198898
}, {
  "name": "Black City of the Dead Signs",
  "slug": "black-city-of-the-dead-signs",
  "number": "213",
  "address": "Next to St Giles Cathedral, Royal Mile",
  "postcode": "EH1 1RE",
  "lat": 55.949692,
  "lng": -3.190482
}, {
  "name": "Black Ivy",
  "slug": "black-ivy",
  "number": "536",
  "address": "4 Alvanley Terrace",
  "postcode": "EH9 1DU",
  "lat": 55.937565,
  "lng": -3.20279
}, {
  "name": "Black Medicine Basement \u0026 Heroes",
  "slug": "black-medicine-basement-heroes",
  "number": "503",
  "address": "2 Nicolson Street",
  "postcode": "EH8 9DH",
  "lat": 55.947002,
  "lng": -3.185919
}, {
  "name": "Blackwell\u0027s Bookshop",
  "slug": "blackwell-s-bookshop",
  "number": "133",
  "address": "53-62 South Bridge",
  "postcode": "EH1 1YS",
  "lat": 55.947758,
  "lng": -3.186232
}, {
  "name": "Bonhams Auction House",
  "slug": "bonhams-auction-house",
  "number": "216",
  "address": "22 Queen Street",
  "postcode": "EH2 1JX",
  "lat": 55.954678,
  "lng": -3.199729
}, {
  "name": "Book Lovers\u0027 Tour Departure",
  "slug": "book-lovers-tour-departure",
  "number": "361",
  "address": "Outside The Writers\u2019 Museum",
  "postcode": "EH1 2PA",
  "lat": 55.949661,
  "lng": -3.193732
}, {
  "name": "Bourbon Bar",
  "slug": "bourbon-bar",
  "number": "333",
  "address": "24a Frederick St",
  "postcode": "EH2 2JR",
  "lat": 55.952431,
  "lng": -3.200417
}, {
  "name": "BrewDog Lothian Rd",
  "slug": "brewdog-lothian-rd",
  "number": "102",
  "address": "50 Lothian Rd",
  "postcode": "EH3 9BY",
  "lat": 55.947708,
  "lng": -3.206933
}, {
  "name": "Brewhemia",
  "slug": "brewhemia",
  "number": "90",
  "address": "1A Market Street",
  "postcode": "EH1 1DE",
  "lat": 55.951221,
  "lng": -3.189148
}, {
  "name": "Brig Below",
  "slug": "brig-below",
  "number": "554",
  "address": "96-98 Leith Walk",
  "postcode": "EH6 5HB",
  "lat": 55.969151,
  "lng": -3.173351
}, {
  "name": "C venues \u2013 C",
  "slug": "c-venues-c",
  "number": "34",
  "address": "Chambers Street",
  "postcode": "EH1 1HR",
  "lat": 55.948021,
  "lng": -3.187272
}, {
  "name": "C venues \u2013 C aquila",
  "slug": "c-venues-c-aquila-2",
  "number": "21",
  "address": "Roman Eagle Lodge, Johnston Terrace",
  "postcode": "EH1 2PW",
  "lat": 55.948418,
  "lng": -3.194976
}, {
  "name": "C venues \u2013 C at New Town Cookery School",
  "slug": "c-venues-c-at-new-town-cookery-school",
  "number": "16",
  "address": "7 Queen Street",
  "postcode": "EH2 1JE",
  "lat": 55.955177,
  "lng": -3.196135
}, {
  "name": "C venues \u2013 C cubed",
  "slug": "c-venues-c-cubed",
  "number": "50",
  "address": "Celtic Lodge, Brodie\u0027s Close, Lawnmarket, Royal Mile",
  "postcode": "EH1 2PS",
  "lat": 55.949364,
  "lng": -3.193157
}, {
  "name": "C venues \u2013 C royale",
  "slug": "c-venues-c-royale",
  "number": "6",
  "address": "Royal Society of Edinburgh, 22 George Street",
  "postcode": "EH2 2PQ",
  "lat": 55.953556,
  "lng": -3.196614
}, {
  "name": "C venues \u2013 C south",
  "slug": "c-venues-c-south",
  "number": "58",
  "address": "St Peter\u0027s, Lutton Place",
  "postcode": "EH8 9PE",
  "lat": 55.940475,
  "lng": -3.178314
}, {
  "name": "C venues \u2013 C too",
  "slug": "c-venues-c-too",
  "number": "4",
  "address": "St Columba\u0027s by the Castle, Johnston Terrace\/Victoria Terrace",
  "postcode": "EH1 2PW",
  "lat": 55.9487,
  "lng": -3.194497
}, {
  "name": "CanadaHub @ King\u0027s Hall in association with Summerhall",
  "slug": "canadahub-king-s-hall-in-association-with-summerhall",
  "number": "73",
  "address": "41A S Clerk St",
  "postcode": "EH8 9NZ",
  "lat": 55.940678,
  "lng": -3.18014
}, {
  "name": "Cannonball Restaurant \u0026 Bar",
  "slug": "cannonball-restaurant-bar",
  "number": "169",
  "address": "Cannonball House",
  "postcode": "EH1 2NF",
  "lat": 55.948944,
  "lng": -3.195177
}, {
  "name": "Canongate Kirk",
  "slug": "canongate-kirk",
  "number": "60",
  "address": "153 Canongate",
  "postcode": "EH8 8BN",
  "lat": 55.951508,
  "lng": -3.179321
}, {
  "name": "Canons\u0027 Gait",
  "slug": "canons-gait",
  "number": "78",
  "address": "232 Canongate",
  "postcode": "EH8 8DQ",
  "lat": 55.950829,
  "lng": -3.182421
}, {
  "name": "Canons\u0027 Gait",
  "slug": "canons-gait-1",
  "number": "78",
  "address": "232 Canongate",
  "postcode": "EH8 8DQ",
  "lat": 55.950829,
  "lng": -3.182421
}, {
  "name": "Captains Bar",
  "slug": "captains-bar",
  "number": "62",
  "address": "4 South College Street",
  "postcode": "EH8 9AA",
  "lat": 55.947014,
  "lng": -3.186822
}, {
  "name": "Car Park at Scottish National Gallery on the Mound",
  "slug": "car-park-at-scottish-national-gallery-on-the-mound",
  "number": "518",
  "address": "The Mound",
  "postcode": "EH2 2EL",
  "lat": 55.95129,
  "lng": -3.196496
}, {
  "name": "Carrubbers",
  "slug": "carrubbers",
  "number": "520",
  "address": "65 High Street",
  "postcode": "EH1 1SR",
  "lat": 55.950649,
  "lng": -3.185544
}, {
  "name": "CC Blooms",
  "slug": "cc-blooms",
  "number": "171",
  "address": "23-24 Greenside Place",
  "postcode": "EH1 3AA",
  "lat": 55.957043,
  "lng": -3.185094
}, {
  "name": "Central Hall",
  "slug": "central-hall-2",
  "number": "295",
  "address": "2 West Tollcross",
  "postcode": "EH3 9BP",
  "lat": 55.943802,
  "lng": -3.204246
}, {
  "name": "Ciao Roma",
  "slug": "ciao-roma",
  "number": "283",
  "address": "64 South Bridge",
  "postcode": "EH1 1LS",
  "lat": 55.94751,
  "lng": -3.186088
}, {
  "name": "City of Edinburgh Tours",
  "slug": "city-of-edinburgh-tours",
  "number": "157",
  "address": "Old Police Box, 9 Hunter Square",
  "postcode": "EH1 1QS",
  "lat": 55.950008,
  "lng": -3.188035
}, {
  "name": "Coates Cafe",
  "slug": "coates-cafe",
  "number": "255",
  "address": "62 Haymarket Terrace",
  "postcode": "EH12 5LA",
  "lat": 55.946255,
  "lng": -3.216203
}, {
  "name": "Coburg House Art Studios",
  "slug": "coburg-house-art-studios",
  "number": "69",
  "address": "15 Coburg Street, Leith",
  "postcode": "EH6 6ET",
  "lat": 55.976116,
  "lng": -3.173884
}, {
  "name": "Columcille Centre",
  "slug": "columcille-centre",
  "number": "336",
  "address": "2 Newbattle Terrace",
  "postcode": "EH10 4RT",
  "lat": 55.930763,
  "lng": -3.208366
}, {
  "name": "Contini George Street",
  "slug": "contini-george-street",
  "number": "226",
  "address": "103 George Street",
  "postcode": "EH2 3ES",
  "lat": 55.952877,
  "lng": -3.202261
}, {
  "name": "Cranston Caravan Club",
  "slug": "cranston-caravan-club",
  "number": "434",
  "address": "13 Cranston Street",
  "postcode": "EH8 8BE",
  "lat": 55.950958,
  "lng": -3.183869
}, {
  "name": "Customs Wharf",
  "slug": "customs-wharf",
  "number": "552",
  "address": "Customs Wharf",
  "postcode": "EH6 6JA",
  "lat": 55.976707,
  "lng": -3.170397
}, {
  "name": "Dance Base",
  "slug": "dance-base",
  "number": "22",
  "address": "14-16 Grassmarket",
  "postcode": "EH1 2JU",
  "lat": 55.947479,
  "lng": -3.197041
}, {
  "name": "Dance Base @ Edinburgh City Chambers",
  "slug": "dance-base-edinburgh-city-chambers",
  "number": "199",
  "address": "City Chambers",
  "postcode": "EH1 1YJ",
  "lat": 55.949913,
  "lng": -3.190186
}, {
  "name": "Daylight Robbery",
  "slug": "daylight-robbery",
  "number": "449",
  "address": "26b Dublin Street",
  "postcode": "EH3 6NN",
  "lat": 55.956959,
  "lng": -3.193571
}, {
  "name": "Dovecot Studios",
  "slug": "dovecot-studios-1",
  "number": "198",
  "address": "10 Infirmary Street",
  "postcode": "EH1 1LT",
  "lat": 55.94809,
  "lng": -3.185302
}, {
  "name": "Duddingston Kirk Manse Gardens",
  "slug": "duddingston-kirk-manse-gardens",
  "number": "121",
  "address": "Old Church Lane",
  "postcode": "EH15 3PX",
  "lat": 55.941376,
  "lng": -3.148665
}, {
  "name": "Dundas Street Gallery",
  "slug": "dundas-street-gallery-1",
  "number": "256",
  "address": "6a Dundas Street",
  "postcode": "EH3 6HZ",
  "lat": 55.956509,
  "lng": -3.199067
}, {
  "name": "Dynamic Earth",
  "slug": "dynamic-earth",
  "number": "315",
  "address": "Holyrood Road",
  "postcode": "EH8 8AS",
  "lat": 55.95089,
  "lng": -3.175049
}, {
  "name": "Edinburgh Beer Factory",
  "slug": "edinburgh-beer-factory",
  "number": "274",
  "address": "Unit 15 Bankhead Industrial Estate",
  "postcode": "EH11 4EQ",
  "lat": 55.928417,
  "lng": -3.297174
}, {
  "name": "Edinburgh Central Mosque",
  "slug": "edinburgh-central-mosque",
  "number": "48",
  "address": "50 Potterrow",
  "postcode": "EH8 9BT",
  "lat": 55.945087,
  "lng": -3.185866
}, {
  "name": "Edinburgh City Chambers (Meeting Point)",
  "slug": "edinburgh-city-chambers-meeting-point",
  "number": "199",
  "address": "High Street",
  "postcode": "EH1 1YJ",
  "lat": 55.949837,
  "lng": -3.190134
}, {
  "name": "Edinburgh Festival Camping",
  "slug": "edinburgh-festival-camping",
  "number": "403",
  "address": "West Gate",
  "postcode": "EH28 8NB",
  "lat": 55.940704,
  "lng": -3.381604
}, {
  "name": "Edinburgh Playhouse",
  "slug": "edinburgh-playhouse",
  "number": "59",
  "address": "18-22 Greenside Place",
  "postcode": "EH1 3AA",
  "lat": 55.957043,
  "lng": -3.185073
}, {
  "name": "Edinburgh Printmakers",
  "slug": "edinburgh-printmakers",
  "number": "144",
  "address": "23 Union Street",
  "postcode": "EH1 3LR",
  "lat": 55.95842,
  "lng": -3.186344
}, {
  "name": "Edinburgh Ski Club",
  "slug": "edinburgh-ski-club-1",
  "number": "208",
  "address": "2 Howe Street",
  "postcode": "EH3 6TD",
  "lat": 55.955753,
  "lng": -3.202366
}, {
  "name": "Edinburgh Tabernacle",
  "slug": "edinburgh-tabernacle",
  "number": "120",
  "address": "41-42 Inverleith Gardens",
  "postcode": "EH3 5PR",
  "lat": 55.970795,
  "lng": -3.213561
}, {
  "name": "El Paso Tapas Bar",
  "slug": "el-paso-tapas-bar",
  "number": "140",
  "address": "3A1 Dundas Street",
  "postcode": "EH3 6QG",
  "lat": 55.956039,
  "lng": -3.198588
}, {
  "name": "Eric Liddell Centre",
  "slug": "eric-liddell-centre",
  "number": "235",
  "address": "15 Morningside Road",
  "postcode": "EH10 4DP",
  "lat": 55.933926,
  "lng": -3.209771
}, {
  "name": "Fingers Piano Bar",
  "slug": "fingers-piano-bar",
  "number": "221",
  "address": "61a Frederick Street",
  "postcode": "EH2 1LH",
  "lat": 55.954105,
  "lng": -3.200874
}, {
  "name": "Fireside",
  "slug": "fireside",
  "number": "75",
  "address": "20 East Market St",
  "postcode": "EH8 8BE",
  "lat": 55.951553,
  "lng": -3.185182
}, {
  "name": "Frankenstein Pub",
  "slug": "frankenstein-pub",
  "number": "304",
  "address": "26 George IV Bridge",
  "postcode": "EH1 1EN",
  "lat": 55.947361,
  "lng": -3.19166
}, {
  "name": "French Institute",
  "slug": "french-institute",
  "number": "168",
  "address": "West Parliament Square",
  "postcode": "EH1 1RF",
  "lat": 55.94931,
  "lng": -3.19233
}, {
  "name": "Fringe Central",
  "slug": "fringe-central-2",
  "number": "2",
  "address": "Appleton Tower, Corner of Windmill and Chapel Streets",
  "postcode": "EH8 9LE",
  "lat": 55.944458,
  "lng": -3.187266
}, {
  "name": "Galerie Mirages",
  "slug": "galerie-mirages-2",
  "number": "149",
  "address": "46a Raeburn Place",
  "postcode": "EH4 1HL",
  "lat": 55.959232,
  "lng": -3.212363
}, {
  "name": "Gallery 23",
  "slug": "gallery-23",
  "number": "207",
  "address": "23 Atholl Crescent",
  "postcode": "EH3 8HQ",
  "lat": 55.947842,
  "lng": -3.213089
}, {
  "name": "Georgian Antiques",
  "slug": "georgian-antiques",
  "number": "263",
  "address": "10 Pattison Street",
  "postcode": "EH6 7HF",
  "lat": 55.973606,
  "lng": -3.163267
}, {
  "name": "Ghillie Dhu",
  "slug": "ghillie-dhu",
  "number": "410",
  "address": "2 Rutland Place",
  "postcode": "EH1 2AD",
  "lat": 55.949936,
  "lng": -3.207829
}, {
  "name": "Gilded Balloon at the Museum",
  "slug": "gilded-balloon-at-the-museum",
  "number": "64",
  "address": "Lothian Street, National Museum of Scotland",
  "postcode": "EH1 1HB",
  "lat": 55.946568,
  "lng": -3.188593
}, {
  "name": "Gilded Balloon Rose Theatre",
  "slug": "gilded-balloon-rose-theatre",
  "number": "76",
  "address": "204 Rose Street",
  "postcode": "EH2 4AZ",
  "lat": 55.951393,
  "lng": -3.205551
}, {
  "name": "Gilded Balloon Teviot",
  "slug": "gilded-balloon-teviot-1",
  "number": "14",
  "address": "Teviot Row House",
  "postcode": "EH8 9AJ",
  "lat": 55.945122,
  "lng": -3.188612
}, {
  "name": "Globe Bar",
  "slug": "globe-bar",
  "number": "161",
  "address": "Niddry Street",
  "postcode": "EH1 1LG",
  "lat": 55.950027,
  "lng": -3.187133
}, {
  "name": "Grassmarket East",
  "slug": "grassmarket-east",
  "number": "165",
  "address": "Grassmarket",
  "postcode": "EH1 2JR",
  "lat": 55.94788,
  "lng": -3.194514
}, {
  "name": "Greenside @ Infirmary Street",
  "slug": "greenside-infirmary-street",
  "number": "236",
  "address": "6 Infirmary Street",
  "postcode": "EH1 1LT",
  "lat": 55.948002,
  "lng": -3.185546
}, {
  "name": "Greenside @ Nicolson Square",
  "slug": "greenside-nicolson-square",
  "number": "209",
  "address": "25 Nicolson Square",
  "postcode": "EH8 9BX",
  "lat": 55.945724,
  "lng": -3.185509
}, {
  "name": "Greenside @ Royal Terrace",
  "slug": "greenside-royal-terrace",
  "number": "231",
  "address": "1b Royal Terrace",
  "postcode": "EH7 5AB",
  "lat": 55.957157,
  "lng": -3.181947
}, {
  "name": "Greyfriars Kirk",
  "slug": "greyfriars-kirk",
  "number": "131",
  "address": "2 Greyfriars Place",
  "postcode": "EH1 2QQ",
  "lat": 55.946678,
  "lng": -3.191317
}, {
  "name": "Guildford Arms",
  "slug": "guildford-arms",
  "number": "107",
  "address": "1 West Register St",
  "postcode": "EH2 2AA",
  "lat": 55.953651,
  "lng": -3.1905
}, {
  "name": "Harvey Nichols Forth Floor",
  "slug": "harvey-nichols-forth-floor",
  "number": "448",
  "address": "30-34 St Andrew Square",
  "postcode": "EH2 2AD",
  "lat": 55.954777,
  "lng": -3.192316
}, {
  "name": "Henry\u0027s Cellar Bar",
  "slug": "henry-s-cellar-bar-1",
  "number": "218",
  "address": "16a Morrison Street",
  "postcode": "EH3 8BJ",
  "lat": 55.94593,
  "lng": -3.20638
}, {
  "name": "Heroes @ Bob\u0027s BlundaBus",
  "slug": "heroes-bob-s-blundabus",
  "number": "212",
  "address": "Potterrow Underpass",
  "postcode": "EH8 9AA",
  "lat": 55.946686,
  "lng": -3.187896
}, {
  "name": "Heroes @ Boteco",
  "slug": "heroes-boteco",
  "number": "516",
  "address": "47 Lothian Street",
  "postcode": "EH1 1HB",
  "lat": 55.946285,
  "lng": -3.189242
}, {
  "name": "Heroes @ Dragonfly",
  "slug": "heroes-dragonfly",
  "number": "414",
  "address": "52 West Port",
  "postcode": "EH1 2LD",
  "lat": 55.946396,
  "lng": -3.199467
}, {
  "name": "Heroes @ The Hive",
  "slug": "heroes-the-hive",
  "number": "313",
  "address": "15-17 Niddry St",
  "postcode": "EH1 1LG",
  "lat": 55.949306,
  "lng": -3.186867
}, {
  "name": "Heroes @ The SpiegelYurt",
  "slug": "heroes-the-spiegelyurt",
  "number": "327",
  "address": "Potterrow Underpass",
  "postcode": "EH8 9AA",
  "lat": 55.946663,
  "lng": -3.187964
}, {
  "name": "High Street, Cockburn Street to George IV Bridge",
  "slug": "high-street-cockburn-street-to-george-iv-bridge",
  "number": "10",
  "address": "Royal Mile",
  "postcode": "EH1 1QS",
  "lat": 55.949829,
  "lng": -3.188732
}, {
  "name": "Hill Street Theatre",
  "slug": "hill-street-theatre-2",
  "number": "41",
  "address": "19 Hill Street",
  "postcode": "EH2 3JP",
  "lat": 55.953545,
  "lng": -3.202541
}, {
  "name": "Hispaniola",
  "slug": "hispaniola",
  "number": "79",
  "address": "3 Drummond St",
  "postcode": "EH8 9TT",
  "lat": 55.947697,
  "lng": -3.184453
}, {
  "name": "Inveresk Lodge Garden",
  "slug": "inveresk-lodge-garden",
  "number": "377",
  "address": "24 Inveresk Village Road",
  "postcode": "EH21 7TE",
  "lat": 55.93639,
  "lng": -3.045852
}, {
  "name": "Inverleith St Serf\u0027s Church Centre",
  "slug": "inverleith-st-serf-s-church-centre",
  "number": "83",
  "address": "1a Clark Road",
  "postcode": "EH5 3BD",
  "lat": 55.971691,
  "lng": -3.205135
}, {
  "name": "Jam House",
  "slug": "jam-house-2",
  "number": "44",
  "address": "5 Queen Street",
  "postcode": "EH2 1JE",
  "lat": 55.955219,
  "lng": -3.195792
}, {
  "name": "Jupiter Artland",
  "slug": "jupiter-artland",
  "number": "500",
  "address": "Bonnington House Steadings",
  "postcode": "EH27 8BY",
  "lat": 55.906818,
  "lng": -3.422885
}, {
  "name": "Just Festival at St John\u0027s",
  "slug": "just-festival-at-st-john-s-1",
  "number": "127",
  "address": "St John\u0027s Church",
  "postcode": "EH2 4BJ",
  "lat": 55.950195,
  "lng": -3.207038
}, {
  "name": "Just the Tonic at La Belle Angele",
  "slug": "just-the-tonic-at-la-belle-angele",
  "number": "301",
  "address": "11 Hastie\u0027s Close",
  "postcode": "EH1 1HJ",
  "lat": 55.948341,
  "lng": -3.187477
}, {
  "name": "Just the Tonic at The Caves",
  "slug": "just-the-tonic-at-the-caves",
  "number": "88",
  "address": "Rowantree Bar",
  "postcode": "EH1 1LG",
  "lat": 55.948715,
  "lng": -3.186457
}, {
  "name": "Just the Tonic at The Grassmarket Centre",
  "slug": "just-the-tonic-at-the-grassmarket-centre",
  "number": "27",
  "address": "86 Candlemaker Row",
  "postcode": "EH1 2QA",
  "lat": 55.947716,
  "lng": -3.193312
}, {
  "name": "Just the Tonic at The Mash House",
  "slug": "just-the-tonic-at-the-mash-house",
  "number": "288",
  "address": "37 Guthrie Street",
  "postcode": "EH1 1JG",
  "lat": 55.94828,
  "lng": -3.187706
}, {
  "name": "Just the Tonic at The Tron",
  "slug": "just-the-tonic-at-the-tron",
  "number": "51",
  "address": "9 Hunter Square",
  "postcode": "EH1 1QW",
  "lat": 55.949642,
  "lng": -3.187573
}, {
  "name": "Kama Sutra Restaurant",
  "slug": "kama-sutra-restaurant",
  "number": "136",
  "address": "16 Drummond Street",
  "postcode": "EH8 9TX",
  "lat": 55.947422,
  "lng": -3.185124
}, {
  "name": "Kilderkin",
  "slug": "kilderkin",
  "number": "227",
  "address": "65 Canongate",
  "postcode": "EH8 8BT",
  "lat": 55.952168,
  "lng": -3.176854
}, {
  "name": "Krua Thai Cookery School",
  "slug": "krua-thai-cookery-school",
  "number": "376",
  "address": "19 Liberton Brae",
  "postcode": "EH16 6AQ",
  "lat": 55.91885,
  "lng": -3.167336
}, {
  "name": "La Belle Angele",
  "slug": "la-belle-angele-3",
  "number": "301",
  "address": "11 Hasties Close",
  "postcode": "EH1 1HJ",
  "lat": 55.948341,
  "lng": -3.187477
}, {
  "name": "La Vida",
  "slug": "la-vida",
  "number": "113",
  "address": "3 Queensferry Street Lane",
  "postcode": "EH2 4PF",
  "lat": 55.950409,
  "lng": -3.209443
}, {
  "name": "Laughing Horse @ Bar 50",
  "slug": "laughing-horse-bar-50",
  "number": "151",
  "address": "50 Blackfriars Street",
  "postcode": "EH1 1NE",
  "lat": 55.949093,
  "lng": -3.186351
}, {
  "name": "Laughing Horse @ Biddy Mulligans",
  "slug": "laughing-horse-biddy-mulligans-2",
  "number": "220",
  "address": "94-96 Grassmarket",
  "postcode": "EH1 2JR",
  "lat": 55.947857,
  "lng": -3.195551
}, {
  "name": "Laughing Horse @ Cabaret Voltaire",
  "slug": "laughing-horse-cabaret-voltaire",
  "number": "338",
  "address": "36-38 Blair Street",
  "postcode": "EH1 1QR",
  "lat": 55.948898,
  "lng": -3.187397
}, {
  "name": "Laughing Horse @ City Cafe",
  "slug": "laughing-horse-city-cafe",
  "number": "85",
  "address": "19 Blair Street",
  "postcode": "EH1 1QR",
  "lat": 55.949238,
  "lng": -3.187734
}, {
  "name": "Laughing Horse @ Dropkick Murphys",
  "slug": "laughing-horse-dropkick-murphys",
  "number": "289",
  "address": "7 Merchant St (off Candlemaker Row)",
  "postcode": "EH1 2QD",
  "lat": 55.94762,
  "lng": -3.192055
}, {
  "name": "Laughing Horse @ Espionage",
  "slug": "laughing-horse-espionage",
  "number": "185",
  "address": "4 India Buildings, Victoria Street",
  "postcode": "EH1 2EX",
  "lat": 55.948673,
  "lng": -3.193156
}, {
  "name": "Laughing Horse @ Finnegan\u0027s Wake",
  "slug": "laughing-horse-finnegan-s-wake",
  "number": "101",
  "address": "9b Victoria Street",
  "postcode": "EH1 2HE",
  "lat": 55.948696,
  "lng": -3.193563
}, {
  "name": "Laughing Horse @ Harry\u2019s Southside",
  "slug": "laughing-horse-harry-s-southside",
  "number": "264",
  "address": "42-44 Buccleuch Street",
  "postcode": "EH8 9LP",
  "lat": 55.942768,
  "lng": -3.1846
}, {
  "name": "Laughing Horse @ Moriarty\u2019s",
  "slug": "laughing-horse-moriarty-s",
  "number": "332",
  "address": "161 Lothian Road",
  "postcode": "EH3 9AA",
  "lat": 55.945122,
  "lng": -3.205211
}, {
  "name": "Laughing Horse @ Southpour",
  "slug": "laughing-horse-southpour",
  "number": "268",
  "address": "1 \u2013 5 Newington Road",
  "postcode": "EH9 1QR",
  "lat": 55.939022,
  "lng": -3.179171
}, {
  "name": "Laughing Horse @ The Counting House",
  "slug": "laughing-horse-the-counting-house-1",
  "number": "170",
  "address": "38 West Nicolson Street",
  "postcode": "EH8 9DD",
  "lat": 55.944542,
  "lng": -3.185275
}, {
  "name": "Laughing Horse @ The Cuckoo\u0027s Nest",
  "slug": "laughing-horse-the-cuckoo-s-nest",
  "number": "106",
  "address": "69 Home Street",
  "postcode": "EH3 9JP",
  "lat": 55.942326,
  "lng": -3.203237
}, {
  "name": "Laughing Horse @ The Free Sisters",
  "slug": "laughing-horse-the-free-sisters",
  "number": "272",
  "address": "139 Cowgate",
  "postcode": "EH1 1JS",
  "lat": 55.948242,
  "lng": -3.190186
}, {
  "name": "Laughing Horse @ The Golf Tavern",
  "slug": "laughing-horse-the-golf-tavern",
  "number": "114",
  "address": "30-31 Wright\u2019s Houses",
  "postcode": "EH10 4HR",
  "lat": 55.939842,
  "lng": -3.203237
}, {
  "name": "Laughing Horse @ The Hanover Tap",
  "slug": "laughing-horse-the-hanover-tap",
  "number": "259",
  "address": "112 Hanover Street",
  "postcode": "EH2 1DR",
  "lat": 55.954601,
  "lng": -3.198032
}, {
  "name": "Laughing Horse @ The Mockingbird",
  "slug": "laughing-horse-the-mockingbird",
  "number": "441",
  "address": "72-74 Newington Road",
  "postcode": "EH9 1QN",
  "lat": 55.937733,
  "lng": -3.178606
}, {
  "name": "Laughing Horse @ The Newsroom",
  "slug": "laughing-horse-the-newsroom",
  "number": "93",
  "address": "5-11 Leith Street",
  "postcode": "EH1 3AT",
  "lat": 55.953827,
  "lng": -3.188277
}, {
  "name": "Laughing Horse @ The Pear Tree",
  "slug": "laughing-horse-the-pear-tree-1",
  "number": "257",
  "address": "36 West Nicholson Street",
  "postcode": "EH8 9DD",
  "lat": 55.94429,
  "lng": -3.185494
}, {
  "name": "Laughing Horse @ The Phoenix",
  "slug": "laughing-horse-the-phoenix",
  "number": "146",
  "address": "46 Broughton Street",
  "postcode": "EH1 3SA",
  "lat": 55.958511,
  "lng": -3.190015
}, {
  "name": "Laughing Horse @ The Place",
  "slug": "laughing-horse-the-place",
  "number": "532",
  "address": "34-38 York Place",
  "postcode": "EH1 3HU",
  "lat": 55.95652,
  "lng": -3.190144
}, {
  "name": "Laughing Horse @ The Wee Pub",
  "slug": "laughing-horse-the-wee-pub",
  "number": "297",
  "address": "1 Currie Close, Grassmarket",
  "postcode": "EH1 2JR",
  "lat": 55.947948,
  "lng": -3.194986
}, {
  "name": "Laughing Horse @ The World\u0027s Smallest Fringe Venue",
  "slug": "laughing-horse-the-world-s-smallest-fringe-venue",
  "number": "196",
  "address": "38 West Nicolson Street",
  "postcode": "EH8 9DD",
  "lat": 55.944614,
  "lng": -3.185256
}, {
  "name": "Laughing Horse @ Ushers",
  "slug": "laughing-horse-ushers-1",
  "number": "442",
  "address": "32b West Nicolson Street",
  "postcode": "EH8 9DD",
  "lat": 55.944538,
  "lng": -3.185262
}, {
  "name": "Lauriston Castle",
  "slug": "lauriston-castle",
  "number": "436",
  "address": "2a Cramond Road South",
  "postcode": "EH4 5QD",
  "lat": 55.968941,
  "lng": -3.278808
}, {
  "name": "Lauriston Halls",
  "slug": "lauriston-halls",
  "number": "163",
  "address": "28 Lauriston St",
  "postcode": "EH3 9DJ",
  "lat": 55.945332,
  "lng": -3.201215
}, {
  "name": "Le Monde",
  "slug": "le-monde-1",
  "number": "47",
  "address": "16 George Street",
  "postcode": "EH2 2PF",
  "lat": 55.953381,
  "lng": -3.19605
}, {
  "name": "Lebowskis Bar",
  "slug": "lebowskis-bar",
  "number": "233",
  "address": "18 Morrison St",
  "postcode": "EH3 8BJ",
  "lat": 55.945957,
  "lng": -3.20649
}, {
  "name": "Leith Depot",
  "slug": "leith-depot-1",
  "number": "214",
  "address": "138-140 Leith Walk",
  "postcode": "EH6 5DT",
  "lat": 55.968388,
  "lng": -3.174007
}, {
  "name": "Leith Dockers Club",
  "slug": "leith-dockers-club",
  "number": "425",
  "address": "17-17A Academy Street",
  "postcode": "EH6 7EE",
  "lat": 55.970852,
  "lng": -3.170217
}, {
  "name": "Leith St Andrew\u0027s Church",
  "slug": "leith-st-andrew-s-church",
  "number": "284",
  "address": "410-412 Easter Road",
  "postcode": "EH6 8HT",
  "lat": 55.968868,
  "lng": -3.167406
}, {
  "name": "LifeCare Edinburgh",
  "slug": "lifecare-edinburgh",
  "number": "524",
  "address": "2 Cheyne Street",
  "postcode": "EH4 1JB",
  "lat": 55.958359,
  "lng": -3.212948
}, {
  "name": "Lighthouse \u2013 Edinburgh\u2019s Radical Bookshop",
  "slug": "lighthouse-edinburgh-s-radical-bookshop",
  "number": "544",
  "address": "43-45 West Nicolson Street",
  "postcode": "EH8 9DB",
  "lat": 55.944611,
  "lng": -3.185542
}, {
  "name": "Lily Luna Edinburgh Jewellery Boutique",
  "slug": "lily-luna-edinburgh-jewellery-boutique",
  "number": "433",
  "address": "43 William Street",
  "postcode": "EH3 7LW",
  "lat": 55.948776,
  "lng": -3.214067
}, {
  "name": "Liquid Room Annexe\/Warehouse",
  "slug": "liquid-room-annexe-warehouse",
  "number": "276",
  "address": "9c Victoria St",
  "postcode": "EH1 2HE",
  "lat": 55.948551,
  "lng": -3.193563
}, {
  "name": "Lochrin Basin",
  "slug": "lochrin-basin",
  "number": "528",
  "address": "Union Canal",
  "postcode": "EH3 9QG",
  "lat": 55.942799,
  "lng": -3.208199
}, {
  "name": "Lochrin Belle",
  "slug": "lochrin-belle",
  "number": "508",
  "address": "Lochrin Basin",
  "postcode": "EH3 9RU",
  "lat": 55.942554,
  "lng": -3.208097
}, {
  "name": "Malones Edinburgh",
  "slug": "malones-edinburgh",
  "number": "549",
  "address": "242 Morrison St",
  "postcode": "EH3 8DT",
  "lat": 55.946323,
  "lng": -3.214416
}, {
  "name": "Mayfield Salisbury Church",
  "slug": "mayfield-salisbury-church",
  "number": "11",
  "address": "18 West Mayfield",
  "postcode": "EH9 1TQ",
  "lat": 55.933693,
  "lng": -3.176754
}, {
  "name": "McSorley\u0027s Irish Bar",
  "slug": "mcsorley-s-irish-bar",
  "number": "280",
  "address": "14 Forrest Road",
  "postcode": "EH1 2QN",
  "lat": 55.945858,
  "lng": -3.190675
}, {
  "name": "Meet outside Tron Kirk at Auld Reekie Tours Boards",
  "slug": "meet-outside-tron-kirk-at-auld-reekie-tours-boards",
  "number": "129",
  "address": "179 High Street",
  "postcode": "EH1 1QW",
  "lat": 55.949829,
  "lng": -3.187806
}, {
  "name": "Meeting Point at Greyfriars Bobby Statue",
  "slug": "meeting-point-at-greyfriars-bobby-statue",
  "number": "356",
  "address": "Candlemaker Row",
  "postcode": "EH1 2QE",
  "lat": 55.947201,
  "lng": -3.191367
}, {
  "name": "Merchant\u0027s Hall",
  "slug": "merchant-s-hall",
  "number": "112",
  "address": "22 Hanover Street",
  "postcode": "EH2 2EP",
  "lat": 55.952618,
  "lng": -3.197008
}, {
  "name": "Monkey Barrel",
  "slug": "monkey-barrel",
  "number": "515",
  "address": "9-11 Blair Street",
  "postcode": "EH1 1QR",
  "lat": 55.949375,
  "lng": -3.187818
}, {
  "name": "Murrayfield Parish Church Centre",
  "slug": "murrayfield-parish-church-centre-2",
  "number": "104",
  "address": "2b Ormidale Terrace",
  "postcode": "EH12 6EQ",
  "lat": 55.946449,
  "lng": -3.240455
}, {
  "name": "Museum of Childhood",
  "slug": "museum-of-childhood",
  "number": "444",
  "address": "42 High Street",
  "postcode": "EH1 1TG",
  "lat": 55.950432,
  "lng": -3.185524
}, {
  "name": "Musselburgh Racecourse",
  "slug": "musselburgh-racecourse",
  "number": "510",
  "address": "Linkfield Road",
  "postcode": "EH21 7RG",
  "lat": 55.945595,
  "lng": -3.044101
}, {
  "name": "National Library of Scotland",
  "slug": "national-library-of-scotland-3",
  "number": "147",
  "address": "George IV Bridge",
  "postcode": "EH1 1EW",
  "lat": 55.948822,
  "lng": -3.192302
}, {
  "name": "National Museum of Scotland",
  "slug": "national-museum-of-scotland",
  "number": "179",
  "address": "Chambers Street",
  "postcode": "EH1 1JF",
  "lat": 55.947361,
  "lng": -3.189999
}, {
  "name": "National Records of Scotland",
  "slug": "national-records-of-scotland",
  "number": "502",
  "address": "HM General Register House",
  "postcode": "EH1 3YY",
  "lat": 55.953815,
  "lng": -3.189351
}, {
  "name": "Natural Food Kafe",
  "slug": "natural-food-kafe",
  "number": "415",
  "address": "55 Clerk Street",
  "postcode": "EH8 9JQ",
  "lat": 55.941887,
  "lng": -3.182164
}, {
  "name": "Neal\u2019s Yard Remedies",
  "slug": "neal-s-yard-remedies-1",
  "number": "176",
  "address": "102 Hanover Street",
  "postcode": "EH2 1DR",
  "lat": 55.954578,
  "lng": -3.197864
}, {
  "name": "Necrobus",
  "slug": "necrobus",
  "number": "115",
  "address": "Waverley Bridge",
  "postcode": "EH1 1BQ",
  "lat": 55.95232,
  "lng": -3.192035
}, {
  "name": "Nightcap",
  "slug": "nightcap-1",
  "number": "383",
  "address": "3 York Place",
  "postcode": "EH1 3EB",
  "lat": 55.955887,
  "lng": -3.192765
}, {
  "name": "Novotel",
  "slug": "novotel",
  "number": "188",
  "address": "80 Lauriston Place",
  "postcode": "EH3 9DE",
  "lat": 55.944935,
  "lng": -3.199666
}, {
  "name": "Number One Clarence Street",
  "slug": "number-one-clarence-street",
  "number": "422",
  "address": "1",
  "postcode": "EH3 5AE",
  "lat": 55.95937,
  "lng": -3.205633
}, {
  "name": "Ocean Terminal",
  "slug": "ocean-terminal",
  "number": "374",
  "address": "Ocean Drive",
  "postcode": "EH6 6JJ",
  "lat": 55.98085,
  "lng": -3.177876
}, {
  "name": "Old Saint Paul\u0027s Church",
  "slug": "old-saint-paul-s-church",
  "number": "267",
  "address": "63 Jeffrey Street",
  "postcode": "EH1 1DH",
  "lat": 55.951351,
  "lng": -3.185438
}, {
  "name": "On Top of Arthur\u0027s Seat",
  "slug": "on-top-of-arthur-s-seat",
  "number": "354",
  "address": "On Top of Arthur\u0027s Seat",
  "postcode": "EH8 8ED",
  "lat": 55.944046,
  "lng": -3.161792
}, {
  "name": "Opium",
  "slug": "opium",
  "number": "96",
  "address": "71 Cowgate",
  "postcode": "EH1 1JW",
  "lat": 55.948235,
  "lng": -3.191734
}, {
  "name": "Out of the Blue Drill Hall",
  "slug": "out-of-the-blue-drill-hall-1",
  "number": "195",
  "address": "36 Dalmeny Street",
  "postcode": "EH6 8RG",
  "lat": 55.964825,
  "lng": -3.17418
}, {
  "name": "Outhouse",
  "slug": "outhouse",
  "number": "99",
  "address": "12a Broughton Street Lane",
  "postcode": "EH1 3LY",
  "lat": 55.957394,
  "lng": -3.187433
}, {
  "name": "Outside Greyfriars Bobby Bar",
  "slug": "outside-greyfriars-bobby-bar",
  "number": "217",
  "address": "34 Candlemaker Row",
  "postcode": "EH1 2QE",
  "lat": 55.946873,
  "lng": -3.191399
}, {
  "name": "Outside John Knox House",
  "slug": "outside-john-knox-house",
  "number": "31",
  "address": "45 High Street",
  "postcode": "EH1 1SR",
  "lat": 55.950607,
  "lng": -3.184707
}, {
  "name": "Outside Johnston Terrace Nature Reserve (by the red telephone boxes)",
  "slug": "outside-johnston-terrace-nature-reserve-by-the-red-telephone-boxes",
  "number": "365",
  "address": "17 Johnston Terrace",
  "postcode": "EH1 2PR",
  "lat": 55.948357,
  "lng": -3.196686
}, {
  "name": "Outside Main Entrance to National Museum of Scotland",
  "slug": "outside-main-entrance-to-national-museum-of-scotland",
  "number": "394",
  "address": "Chambers Street",
  "postcode": "EH1 1JF",
  "lat": 55.947361,
  "lng": -3.189999
}, {
  "name": "Outside Newkirkgate Shopping Centre",
  "slug": "outside-newkirkgate-shopping-centre",
  "number": "527",
  "address": "Leith",
  "postcode": "EH6 6AD",
  "lat": 55.971069,
  "lng": -3.171915
}, {
  "name": "Outside Scott Monument",
  "slug": "outside-scott-monument",
  "number": "523",
  "address": "East Princes Street Gardens",
  "postcode": "EH2 2EJ",
  "lat": 55.952316,
  "lng": -3.193349
}, {
  "name": "Outside the Beehive Inn",
  "slug": "outside-the-beehive-inn",
  "number": "178",
  "address": "18 Grassmarket",
  "postcode": "EH1 2JU",
  "lat": 55.947289,
  "lng": -3.197052
}, {
  "name": "Outside The Cigar Box",
  "slug": "outside-the-cigar-box",
  "number": "215",
  "address": "361 High Street",
  "postcode": "EH1 1PW",
  "lat": 55.949959,
  "lng": -3.191495
}, {
  "name": "Outside The Conan Doyle Pub",
  "slug": "outside-the-conan-doyle-pub",
  "number": "551",
  "address": "71-73 York Place",
  "postcode": "EH1 3JD",
  "lat": 55.956623,
  "lng": -3.187859
}, {
  "name": "Outside the Tron \u2013 Hunter Square",
  "slug": "outside-the-tron-hunter-square",
  "number": "252",
  "address": "Hunter Square",
  "postcode": "EH1 1QW",
  "lat": 55.94973,
  "lng": -3.187967
}, {
  "name": "Outside Who\u2019s Who",
  "slug": "outside-who-s-who",
  "number": "427",
  "address": "65 Cockburn Street",
  "postcode": "EH1 1BU",
  "lat": 55.950626,
  "lng": -3.188557
}, {
  "name": "Palmerston Place Church",
  "slug": "palmerston-place-church",
  "number": "254",
  "address": "12 Palmerston Place",
  "postcode": "EH12 5AA",
  "lat": 55.947269,
  "lng": -3.215847
}, {
  "name": "Panmure House",
  "slug": "panmure-house",
  "number": "305",
  "address": "Lochend Close",
  "postcode": "EH8 8BL",
  "lat": 55.952251,
  "lng": -3.178404
}, {
  "name": "Paradise in Augustines",
  "slug": "paradise-in-augustines",
  "number": "152",
  "address": "41 George IV Bridge",
  "postcode": "EH1 1EL",
  "lat": 55.947556,
  "lng": -3.191578
}, {
  "name": "Paradise in The Vault",
  "slug": "paradise-in-the-vault",
  "number": "29",
  "address": "11 Merchant Street",
  "postcode": "EH1 2QD",
  "lat": 55.947727,
  "lng": -3.191261
}, {
  "name": "Paradise Palms",
  "slug": "paradise-palms",
  "number": "411",
  "address": "41 Lothian Street",
  "postcode": "EH1 1HB",
  "lat": 55.946274,
  "lng": -3.18922
}, {
  "name": "Parliament House",
  "slug": "parliament-house",
  "number": "402",
  "address": "Parliament Square",
  "postcode": "EH1 1RQ",
  "lat": 55.948944,
  "lng": -3.190295
}, {
  "name": "PASS Theatre",
  "slug": "pass-theatre",
  "number": "446",
  "address": "Edinburgh College, Granton Campus",
  "postcode": "EH5 1QE",
  "lat": 55.977306,
  "lng": -3.244985
}, {
  "name": "Patisserie Florentin",
  "slug": "patisserie-florentin",
  "number": "531",
  "address": "5 North West Circus Place",
  "postcode": "EH4 4BG",
  "lat": 55.95734,
  "lng": -3.205971
}, {
  "name": "Pilgrim",
  "slug": "pilgrim",
  "number": "100",
  "address": "3 Robertsons Close",
  "postcode": "EH1 1LY",
  "lat": 55.948807,
  "lng": -3.186052
}, {
  "name": "Planet Bar",
  "slug": "planet-bar",
  "number": "429",
  "address": "6 Baxters Place",
  "postcode": "EH1 3AF",
  "lat": 55.95763,
  "lng": -3.184526
}, {
  "name": "Pleasance at EICC",
  "slug": "pleasance-at-eicc",
  "number": "150",
  "address": "150 Morrison Street",
  "postcode": "EH3 8EE",
  "lat": 55.945854,
  "lng": -3.209803
}, {
  "name": "Pleasance Courtyard",
  "slug": "pleasance-courtyard",
  "number": "33",
  "address": "60 Pleasance",
  "postcode": "EH8 9TJ",
  "lat": 55.947746,
  "lng": -3.18193
}, {
  "name": "Pleasance Dome",
  "slug": "pleasance-dome",
  "number": "23",
  "address": "1 Bristo Square",
  "postcode": "EH8 9AL",
  "lat": 55.946018,
  "lng": -3.18841
}, {
  "name": "Pleasance Pop-Up: Power Play HQ",
  "slug": "pleasance-pop-up-power-play-hq",
  "number": "330",
  "address": "Flat 7, 21 Broughton Street",
  "postcode": "EH1 3JU",
  "lat": 55.957188,
  "lng": -3.187898
}, {
  "name": "Portobello Old Parish Church",
  "slug": "portobello-old-parish-church",
  "number": "534",
  "address": "Bellfield Street",
  "postcode": "EH15 2BP",
  "lat": 55.95229,
  "lng": -3.108282
}, {
  "name": "PQA Venues @Riddle\u0027s Court",
  "slug": "pqa-venues-riddle-s-court",
  "number": "277",
  "address": "Riddle\u0027s Court",
  "postcode": "EH1 2PG",
  "lat": 55.949162,
  "lng": -3.193713
}, {
  "name": "Prestonfield House",
  "slug": "prestonfield-house-1",
  "number": "223",
  "address": "Priestfield Road",
  "postcode": "EH16 5UT",
  "lat": 55.936592,
  "lng": -3.157291
}, {
  "name": "Princes Street Gardens",
  "slug": "princes-street-gardens",
  "number": "362",
  "address": "Princes St",
  "postcode": "EH2 2HG",
  "lat": 55.950531,
  "lng": -3.200059
}, {
  "name": "Quaker Meeting House",
  "slug": "quaker-meeting-house",
  "number": "40",
  "address": "7 Victoria Terrace",
  "postcode": "EH1 2JL",
  "lat": 55.948803,
  "lng": -3.193624
}, {
  "name": "Rae Macintosh Musicroom",
  "slug": "rae-macintosh-musicroom",
  "number": "206",
  "address": "41 Shandwick Place",
  "postcode": "EH2 4RG",
  "lat": 55.949741,
  "lng": -3.208522
}, {
  "name": "Ravenscroft Studio",
  "slug": "ravenscroft-studio",
  "number": "390",
  "address": "19 Ravenscroft St",
  "postcode": "EH17 8QJ",
  "lat": 55.904091,
  "lng": -3.133885
}, {
  "name": "Red Sky Tent Company Pop Up Hotel",
  "slug": "red-sky-tent-company-pop-up-hotel",
  "number": "535",
  "address": "Meggetland Sports Complex",
  "postcode": "EH14 1XN",
  "lat": 55.927357,
  "lng": -3.233208
}, {
  "name": "Revolution Bar",
  "slug": "revolution-bar",
  "number": "224",
  "address": "30 Chambers St",
  "postcode": "EH1 1HU",
  "lat": 55.94738,
  "lng": -3.190829
}, {
  "name": "Robert Graham Tasting Room",
  "slug": "robert-graham-tasting-room",
  "number": "141",
  "address": "254 Canongate",
  "postcode": "EH8 8AA",
  "lat": 55.950752,
  "lng": -3.183389
}, {
  "name": "Roundabout @ Summerhall",
  "slug": "roundabout-summerhall-1",
  "number": "26",
  "address": "Summerhall",
  "postcode": "EH9 1PL",
  "lat": 55.939903,
  "lng": -3.182338
}, {
  "name": "Royal Botanic Garden Edinburgh - Pyrus Lawn",
  "slug": "royal-botanic-garden-edinburgh-pyrus-lawn",
  "number": "432",
  "address": "Accessible via Arboretum Place",
  "postcode": "EH3 5LR",
  "lat": 55.965103,
  "lng": -3.203046
}, {
  "name": "Royal Botanic Garden Edinburgh \u2013 Inverleith House",
  "slug": "royal-botanic-garden-edinburgh-inverleith-house",
  "number": "369",
  "address": "Entrances on Inverleith Row and Arboretum Place",
  "postcode": "EH5 3LP",
  "lat": 55.964611,
  "lng": -3.212775
}, {
  "name": "Royal Botanic Garden Edinburgh \u2013 Inverleith House Lawn",
  "slug": "royal-botanic-garden-edinburgh-inverleith-house-lawn-1",
  "number": "193",
  "address": "Entrances on Arboretum Place and Inverleith Row",
  "postcode": "EH3 5NZ",
  "lat": 55.964409,
  "lng": -3.212667
}, {
  "name": "Royal Botanic Garden Edinburgh \u2013 John Hope Gateway",
  "slug": "royal-botanic-garden-edinburgh-john-hope-gateway",
  "number": "28",
  "address": "Arboretum Place",
  "postcode": "EH3 5NZ",
  "lat": 55.964638,
  "lng": -3.212689
}, {
  "name": "Royal College of Surgeons",
  "slug": "royal-college-of-surgeons",
  "number": "326",
  "address": "Nicolson Street",
  "postcode": "EH8 9DW",
  "lat": 55.946766,
  "lng": -3.184935
}, {
  "name": "Saint Stephens Theatre",
  "slug": "saint-stephens-theatre",
  "number": "166",
  "address": "105 St Stephen Street",
  "postcode": "EH3 5AB",
  "lat": 55.958569,
  "lng": -3.203486
}, {
  "name": "Santosa",
  "slug": "santosa",
  "number": "537",
  "address": "21 Albert Street",
  "postcode": "EH7 5LH",
  "lat": 55.96244,
  "lng": -3.177418
}, {
  "name": "Saorsa Art Gallery",
  "slug": "saorsa-art-gallery",
  "number": "550",
  "address": "8 Deanhaugh Street",
  "postcode": "EH4 1LY",
  "lat": 55.958218,
  "lng": -3.209455
}, {
  "name": "Saughtonhall United Reformed Church",
  "slug": "saughtonhall-united-reformed-church",
  "number": "273",
  "address": "87 Saughtonhall Drive",
  "postcode": "EH12 5TR",
  "lat": 55.942013,
  "lng": -3.251352
}, {
  "name": "Scotsman Grand Caf\u00e9 \u0026 Bar",
  "slug": "scotsman-grand-cafe-bar",
  "number": "529",
  "address": "20 North Bridge",
  "postcode": "EH1 1TR",
  "lat": 55.951088,
  "lng": -3.188364
}, {
  "name": "Scottish Arts Club",
  "slug": "scottish-arts-club",
  "number": "310",
  "address": "24 Rutland Square",
  "postcode": "EH1 2BW",
  "lat": 55.949154,
  "lng": -3.209497
}, {
  "name": "Scottish Comedy Festival @ The Beehive Inn",
  "slug": "scottish-comedy-festival-the-beehive-inn",
  "number": "178",
  "address": "18-20 Grassmarket",
  "postcode": "EH1 2JU",
  "lat": 55.94738,
  "lng": -3.196891
}, {
  "name": "Scottish National Gallery",
  "slug": "scottish-national-gallery",
  "number": "222",
  "address": "The Mound",
  "postcode": "EH2 2EL",
  "lat": 55.951942,
  "lng": -3.196442
}, {
  "name": "Scottish National Gallery of Modern Art",
  "slug": "scottish-national-gallery-of-modern-art",
  "number": "66",
  "address": "73 Belford Road",
  "postcode": "EH4 3DS",
  "lat": 55.952,
  "lng": -3.224224
}, {
  "name": "Scottish Poetry Library",
  "slug": "scottish-poetry-library",
  "number": "203",
  "address": "5 Crichton\u0027s Close",
  "postcode": "EH8 8DT",
  "lat": 55.951469,
  "lng": -3.178088
}, {
  "name": "Scottish Storytelling Centre",
  "slug": "scottish-storytelling-centre-2",
  "number": "30",
  "address": "43-45 High Street",
  "postcode": "EH1 1SR",
  "lat": 55.950588,
  "lng": -3.185056
}, {
  "name": "Sneaky Pete\u0027s",
  "slug": "sneaky-pete-s-1",
  "number": "437",
  "address": "73 Cowgate",
  "postcode": "EH1 1JW",
  "lat": 55.948273,
  "lng": -3.19152
}, {
  "name": "Southsider",
  "slug": "southsider",
  "number": "148",
  "address": "3-7 West Richmond Street",
  "postcode": "EH8 9EF",
  "lat": 55.945316,
  "lng": -3.183715
}, {
  "name": "St Andrew\u0027s and St George\u0027s West, George St",
  "slug": "st-andrew-s-and-st-george-s-west-george-st",
  "number": "111",
  "address": "13 George Street",
  "postcode": "EH2 2PA",
  "lat": 55.954403,
  "lng": -3.195866
}, {
  "name": "St Cecilia\u0027s Hall",
  "slug": "st-cecilia-s-hall",
  "number": "77",
  "address": "50 Niddry Street",
  "postcode": "EH1 1LG",
  "lat": 55.948853,
  "lng": -3.186489
}, {
  "name": "St Cuthbert\u0027s Church",
  "slug": "st-cuthbert-s-church",
  "number": "122",
  "address": "5 Lothian Road",
  "postcode": "EH1 2EP",
  "lat": 55.949474,
  "lng": -3.205463
}, {
  "name": "St Giles\u0027 Cathedral",
  "slug": "st-giles-cathedral",
  "number": "187",
  "address": "Royal Mile",
  "postcode": "EH1 1RE",
  "lat": 55.949657,
  "lng": -3.190845
}, {
  "name": "St Johns \u2013 West End Fair",
  "slug": "st-johns-west-end-fair",
  "number": "127",
  "address": "Corner of Princes St \u0026 Lothian Rd",
  "postcode": "EH2 4BJ",
  "lat": 55.950039,
  "lng": -3.206059
}, {
  "name": "St Mary\u0027s Cathedral",
  "slug": "st-mary-s-cathedral",
  "number": "91",
  "address": "23 Palmerston Place",
  "postcode": "EH12 5AW",
  "lat": 55.948624,
  "lng": -3.216573
}, {
  "name": "St Michael and All Saints",
  "slug": "st-michael-and-all-saints",
  "number": "95",
  "address": "26 Brougham Street",
  "postcode": "EH3 9JH",
  "lat": 55.94371,
  "lng": -3.202497
}, {
  "name": "St Ninian\u0027s Hall",
  "slug": "st-ninian-s-hall",
  "number": "230",
  "address": "40 Comely Bank",
  "postcode": "EH4 1AG",
  "lat": 55.958763,
  "lng": -3.22497
}, {
  "name": "St Patrick\u0027s Church",
  "slug": "st-patrick-s-church",
  "number": "408",
  "address": "Cowgate",
  "postcode": "EH1 1NA",
  "lat": 55.949123,
  "lng": -3.184161
}, {
  "name": "St Vincent\u0027s",
  "slug": "st-vincent-s",
  "number": "197",
  "address": "St Vincent Street",
  "postcode": "EH3 6SW",
  "lat": 55.958221,
  "lng": -3.203529
}, {
  "name": "Statue of David Hume",
  "slug": "statue-of-david-hume",
  "number": "530",
  "address": "Outside High Court",
  "postcode": "EH1 1PW",
  "lat": 55.949497,
  "lng": -3.192604
}, {
  "name": "Statue of William Playfair",
  "slug": "statue-of-william-playfair",
  "number": "363",
  "address": "Outside National Museum of Scotland",
  "postcode": "EH1 1JZ",
  "lat": 55.947506,
  "lng": -3.189033
}, {
  "name": "Stockbridge Church",
  "slug": "stockbridge-church",
  "number": "317",
  "address": "7b Saxe Coburg Street",
  "postcode": "EH3 5BN",
  "lat": 55.960136,
  "lng": -3.206664
}, {
  "name": "Stockbridge Market Saunders St Entrance",
  "slug": "stockbridge-market-saunders-st-entrance",
  "number": "159",
  "address": "1 Saunders St",
  "postcode": "EH3 6TQ",
  "lat": 55.957638,
  "lng": -3.208809
}, {
  "name": "Stramash",
  "slug": "stramash-1",
  "number": "342",
  "address": "207 Cowgate",
  "postcode": "EH1 1JQ",
  "lat": 55.948483,
  "lng": -3.187797
}, {
  "name": "Stramash",
  "slug": "stramash-2",
  "number": "342",
  "address": "207 Cowgate",
  "postcode": "EH1 1JQ",
  "lat": 55.948483,
  "lng": -3.187797
}, {
  "name": "Subway",
  "slug": "subway",
  "number": "56",
  "address": "69 Cowgate",
  "postcode": "EH1 1JW",
  "lat": 55.948231,
  "lng": -3.191723
}, {
  "name": "Summerhall",
  "slug": "summerhall",
  "number": "26",
  "address": "1 Summerhall",
  "postcode": "EH9 1PL",
  "lat": 55.939903,
  "lng": -3.182338
}, {
  "name": "Sweet Grassmarket",
  "slug": "sweet-grassmarket",
  "number": "18",
  "address": "Apex Grassmarket Hotel",
  "postcode": "EH1 2HS",
  "lat": 55.947258,
  "lng": -3.196283
}, {
  "name": "Sweet Novotel",
  "slug": "sweet-novotel",
  "number": "188",
  "address": "80 Lauriston Place, Novotel Edinburgh Centre Hotel",
  "postcode": "EH3 9DE",
  "lat": 55.944935,
  "lng": -3.199666
}, {
  "name": "T\u00e9te-a-T\u00e9te Foto Studio",
  "slug": "tete-a-tete-foto-studio",
  "number": "348",
  "address": "52 Blackfriars Street",
  "postcode": "EH1 1NE",
  "lat": 55.949394,
  "lng": -3.185995
}, {
  "name": "The Adam Pottery",
  "slug": "the-adam-pottery-1",
  "number": "135",
  "address": "76 Henderson Row",
  "postcode": "EH3 5BJ",
  "lat": 55.960049,
  "lng": -3.205983
}, {
  "name": "The Ball Room Sports Bar \u0026 Pool Hall",
  "slug": "the-ball-room-sports-bar-pool-hall",
  "number": "541",
  "address": "25 Jocks Lodge",
  "postcode": "EH8 7AA",
  "lat": 55.955315,
  "lng": -3.150864
}, {
  "name": "The Blue Easel Gallery",
  "slug": "the-blue-easel-gallery",
  "number": "507",
  "address": "8 Cramond Village",
  "postcode": "EH4 6NU",
  "lat": 55.97958,
  "lng": -3.300396
}, {
  "name": "The Brunton",
  "slug": "the-brunton",
  "number": "191",
  "address": "Ladywell Way",
  "postcode": "EH21 6AA",
  "lat": 55.94379,
  "lng": -3.056372
}, {
  "name": "The Clootie Dumpling",
  "slug": "the-clootie-dumpling",
  "number": "545",
  "address": "Old Stamp Office Close",
  "postcode": "EH1 1PE",
  "lat": 55.950027,
  "lng": -3.188854
}, {
  "name": "The Coffee House",
  "slug": "the-coffee-house",
  "number": "533",
  "address": "144 High Street",
  "postcode": "EH1 1PE",
  "lat": 55.94989,
  "lng": -3.188733
}, {
  "name": "The Dome",
  "slug": "the-dome",
  "number": "287",
  "address": "14 George Street",
  "postcode": "EH2 2PF",
  "lat": 55.953442,
  "lng": -3.19553
}, {
  "name": "The Edinburgh Academy",
  "slug": "the-edinburgh-academy-1",
  "number": "70",
  "address": "42 Henderson Row",
  "postcode": "EH3 5BL",
  "lat": 55.960773,
  "lng": -3.204481
}, {
  "name": "The Edinburgh Dungeon",
  "slug": "the-edinburgh-dungeon-1",
  "number": "52",
  "address": "31 Market Street",
  "postcode": "EH1 1DF",
  "lat": 55.950966,
  "lng": -3.190802
}, {
  "name": "The Edinburgh Yes Hub",
  "slug": "the-edinburgh-yes-hub",
  "number": "325",
  "address": "31 Lasswade Road",
  "postcode": "EH16 6TD",
  "lat": 55.912464,
  "lng": -3.158768
}, {
  "name": "The Fruitmarket Gallery",
  "slug": "the-fruitmarket-gallery",
  "number": "359",
  "address": "45 Market Street",
  "postcode": "EH1 1DF",
  "lat": 55.951275,
  "lng": -3.189973
}, {
  "name": "The Healthy Life Centre",
  "slug": "the-healthy-life-centre",
  "number": "349",
  "address": "35-37 Bread Street",
  "postcode": "EH3 9AL",
  "lat": 55.946064,
  "lng": -3.203981
}, {
  "name": "The Jam House",
  "slug": "the-jam-house-1",
  "number": "44",
  "address": "5 Queen Street",
  "postcode": "EH2 1JE",
  "lat": 55.955219,
  "lng": -3.195792
}, {
  "name": "The Jazz Bar",
  "slug": "the-jazz-bar",
  "number": "57",
  "address": "1a Chambers Street",
  "postcode": "EH1 1HR",
  "lat": 55.94796,
  "lng": -3.187034
}, {
  "name": "The Life Room Gallery",
  "slug": "the-life-room-gallery",
  "number": "251",
  "address": "23b Dundas Street",
  "postcode": "EH3 6QQ",
  "lat": 55.957043,
  "lng": -3.199109
}, {
  "name": "The Life Room Gallery",
  "slug": "the-life-room-gallery-1",
  "number": "251",
  "address": "23B Dundas Street",
  "postcode": "EH3 6QQ",
  "lat": 55.957043,
  "lng": -3.199109
}, {
  "name": "The Liquid Room",
  "slug": "the-liquid-room",
  "number": "276",
  "address": "9c Victoria Street",
  "postcode": "EH1 2HE",
  "lat": 55.948547,
  "lng": -3.193595
}, {
  "name": "The Mansfield Traquair Centre",
  "slug": "the-mansfield-traquair-centre",
  "number": "262",
  "address": "15 Mansfield Place",
  "postcode": "EH3 6BB",
  "lat": 55.959728,
  "lng": -3.190483
}, {
  "name": "The Mound Precinct",
  "slug": "the-mound-precinct",
  "number": "55",
  "address": "Princes Street",
  "postcode": "EH1 1YZ",
  "lat": 55.951878,
  "lng": -3.195915
}, {
  "name": "The Nomads Tent",
  "slug": "the-nomads-tent",
  "number": "142",
  "address": "21 St Leonard\u0027s Lane",
  "postcode": "EH8 9SH",
  "lat": 55.943336,
  "lng": -3.178485
}, {
  "name": "The Other Place",
  "slug": "the-other-place",
  "number": "428",
  "address": "2-4 Broughton Road",
  "postcode": "EH7 4EB",
  "lat": 55.962971,
  "lng": -3.195529
}, {
  "name": "The Oz Bar",
  "slug": "the-oz-bar",
  "number": "555",
  "address": "33 Candlemaker Row",
  "postcode": "EH1 2QG",
  "lat": 55.947506,
  "lng": -3.19209
}, {
  "name": "The Photographic Exhibition Centre",
  "slug": "the-photographic-exhibition-centre-1",
  "number": "130",
  "address": "68 Great King Street",
  "postcode": "EH3 6QU",
  "lat": 55.9576,
  "lng": -3.202124
}, {
  "name": "The Principal",
  "slug": "the-principal",
  "number": "119",
  "address": "19-21 George Street",
  "postcode": "EH2 2PB",
  "lat": 55.953781,
  "lng": -3.196307
}, {
  "name": "The Queen\u0027s Hall",
  "slug": "the-queen-s-hall-1",
  "number": "72",
  "address": "85-89 Clerk Street",
  "postcode": "EH8 9JG",
  "lat": 55.941437,
  "lng": -3.18177
}, {
  "name": "The Radisson Collection Royal Mile Hotel",
  "slug": "the-radisson-collection-royal-mile-hotel",
  "number": "412",
  "address": "1 George IV Bridge",
  "postcode": "EH1 1AD",
  "lat": 55.949059,
  "lng": -3.192844
}, {
  "name": "The Royal Oak",
  "slug": "the-royal-oak",
  "number": "309",
  "address": "1 Infirmary Street, off South Bridge",
  "postcode": "EH1 1LT",
  "lat": 55.948029,
  "lng": -3.185881
}, {
  "name": "The Royal Scots Club",
  "slug": "the-royal-scots-club",
  "number": "241",
  "address": "29-31 Abercromby Place",
  "postcode": "EH3 6QE",
  "lat": 55.956444,
  "lng": -3.197926
}, {
  "name": "The Salvation Army Edinburgh City Corps",
  "slug": "the-salvation-army-edinburgh-city-corps",
  "number": "405",
  "address": "1 East Adam Street",
  "postcode": "EH8 9TF",
  "lat": 55.948078,
  "lng": -3.182494
}, {
  "name": "The Scotch Malt Whisky Society",
  "slug": "the-scotch-malt-whisky-society",
  "number": "182",
  "address": "28 Queen Street",
  "postcode": "EH2 1JX",
  "lat": 55.954506,
  "lng": -3.199642
}, {
  "name": "The Scottish Cafe \u0026 Restaurant",
  "slug": "the-scottish-cafe-restaurant-1",
  "number": "337",
  "address": "At The Scottish National Gallery",
  "postcode": "EH2 2EL",
  "lat": 55.951794,
  "lng": -3.196388
}, {
  "name": "The Scottish Parliament",
  "slug": "the-scottish-parliament",
  "number": "511",
  "address": "The Scottish Parliament",
  "postcode": "EH99 1SP",
  "lat": 55.951996,
  "lng": -3.175189
}, {
  "name": "The Sheraton Grand Hotel",
  "slug": "the-sheraton-grand-hotel",
  "number": "229",
  "address": "1 Festival Square",
  "postcode": "EH3 9SR",
  "lat": 55.947098,
  "lng": -3.207617
}, {
  "name": "The Stand Comedy Club",
  "slug": "the-stand-comedy-club",
  "number": "5",
  "address": "5 York Place",
  "postcode": "EH1 3EB",
  "lat": 55.955872,
  "lng": -3.192146
}, {
  "name": "The Stand Comedy Club 2",
  "slug": "the-stand-comedy-club-2",
  "number": "5",
  "address": "16 North St Andrew Street",
  "postcode": "EH2 1HJ",
  "lat": 55.955872,
  "lng": -3.192146
}, {
  "name": "The Stand Comedy Club 3 \u0026 4",
  "slug": "the-stand-comedy-club-3-4",
  "number": "12",
  "address": "28 York Place",
  "postcode": "EH1 3EP",
  "lat": 55.956348,
  "lng": -3.190521
}, {
  "name": "The Stand\u2019s New Town Theatre",
  "slug": "the-stand-s-new-town-theatre",
  "number": "7",
  "address": "Freemasons\u0027 Hall",
  "postcode": "EH2 3DH",
  "lat": 55.952488,
  "lng": -3.202311
}, {
  "name": "The Street",
  "slug": "the-street",
  "number": "239",
  "address": "2b Picardy Place",
  "postcode": "EH1 3JT",
  "lat": 55.956814,
  "lng": -3.18774
}, {
  "name": "The Street Bar",
  "slug": "the-street-bar",
  "number": "239",
  "address": "2b Picardy Place",
  "postcode": "EH1 3JT",
  "lat": 55.956814,
  "lng": -3.18774
}, {
  "name": "The Telford Arms",
  "slug": "the-telford-arms",
  "number": "543",
  "address": "76 Telford Road",
  "postcode": "EH4 2NF",
  "lat": 55.961655,
  "lng": -3.241627
}, {
  "name": "The Voodoo Rooms",
  "slug": "the-voodoo-rooms-1",
  "number": "68",
  "address": "19a West Register Street",
  "postcode": "EH2 2AA",
  "lat": 55.953671,
  "lng": -3.190629
}, {
  "name": "The Writers\u0027 Museum",
  "slug": "the-writers-museum",
  "number": "266",
  "address": "Lady Stair\u0027s Close, Lawnmarket",
  "postcode": "EH1 2PA",
  "lat": 55.949638,
  "lng": -3.193821
}, {
  "name": "Theatre Bath Bus",
  "slug": "theatre-bath-bus",
  "number": "323",
  "address": "The Meadows (Junction of Middle Meadows Walk \u0026 Jawbone Walk)",
  "postcode": "EH9 1ND",
  "lat": 55.942577,
  "lng": -3.191425
}, {
  "name": "Theatre Big Tops",
  "slug": "theatre-big-tops",
  "number": "189",
  "address": "Fountainbridge Site",
  "postcode": "EH3 9RX",
  "lat": 55.942829,
  "lng": -3.210852
}, {
  "name": "theSpace @ Jurys Inn",
  "slug": "thespace-jurys-inn",
  "number": "260",
  "address": "43 Jeffrey Street",
  "postcode": "EH1 1DH",
  "lat": 55.951244,
  "lng": -3.185792
}, {
  "name": "theSpace @ Niddry St",
  "slug": "thespace-niddry-st",
  "number": "9",
  "address": "Niddry Street",
  "postcode": "EH1 1TH",
  "lat": 55.949791,
  "lng": -3.186844
}, {
  "name": "theSpace @ Surgeons Hall",
  "slug": "thespace-surgeons-hall",
  "number": "53",
  "address": "Nicolson Street",
  "postcode": "EH8 9DW",
  "lat": 55.946678,
  "lng": -3.185542
}, {
  "name": "theSpace @ Symposium Hall",
  "slug": "thespace-symposium-hall",
  "number": "43",
  "address": "Hill Square",
  "postcode": "EH8 9DR",
  "lat": 55.946709,
  "lng": -3.184109
}, {
  "name": "theSpace @ Venue45",
  "slug": "thespace-venue45",
  "number": "45",
  "address": "63 Jeffrey Street",
  "postcode": "EH1 1DH",
  "lat": 55.951206,
  "lng": -3.187093
}, {
  "name": "theSpace on North Bridge",
  "slug": "thespace-on-north-bridge-2",
  "number": "36",
  "address": "North Bridge",
  "postcode": "EH1 1SD",
  "lat": 55.951145,
  "lng": -3.187811
}, {
  "name": "theSpace on the Mile",
  "slug": "thespace-on-the-mile",
  "number": "39",
  "address": "80 High Street",
  "postcode": "EH1 1TH",
  "lat": 55.950169,
  "lng": -3.186889
}, {
  "name": "theSpaceTriplex",
  "slug": "thespacetriplex",
  "number": "38",
  "address": "The Prince Phillip Building",
  "postcode": "EH8 9DP",
  "lat": 55.946072,
  "lng": -3.185061
}, {
  "name": "Three Broomsticks",
  "slug": "three-broomsticks",
  "number": "398",
  "address": "51 South Bridge",
  "postcode": "EH1 1LL",
  "lat": 55.948101,
  "lng": -3.186303
}, {
  "name": "Tolbooth Market",
  "slug": "tolbooth-market",
  "number": "98",
  "address": "Gladstone\u0027s Court",
  "postcode": "EH8 8BN",
  "lat": 55.951397,
  "lng": -3.180261
}, {
  "name": "Traquair House",
  "slug": "traquair-house",
  "number": "505",
  "address": "Traquair House, Innerleithen",
  "postcode": "EH44 6PW",
  "lat": 55.608425,
  "lng": -3.064015
}, {
  "name": "Traverse at Jeelie Piece caf\u00e9",
  "slug": "traverse-at-jeelie-piece-cafe",
  "number": "526",
  "address": "12 Leven Street",
  "postcode": "EH3 9LG",
  "lat": 55.941692,
  "lng": -3.203254
}, {
  "name": "Traverse Theatre",
  "slug": "traverse-theatre-1",
  "number": "15",
  "address": "10 Cambridge Street",
  "postcode": "EH1 2ED",
  "lat": 55.947624,
  "lng": -3.204838
}, {
  "name": "Tynecastle Park",
  "slug": "tynecastle-park",
  "number": "547",
  "address": "Gorgie Road",
  "postcode": "EH11 2NL",
  "lat": 55.939087,
  "lng": -3.232348
}, {
  "name": "Uber Comedy Car Meeting Point",
  "slug": "uber-comedy-car-meeting-point",
  "number": "553",
  "address": "Outside Revolution Bar",
  "postcode": "EH1 1HU",
  "lat": 55.947269,
  "lng": -3.190799
}, {
  "name": "Underbelly, Bristo Square",
  "slug": "underbelly-bristo-square",
  "number": "302",
  "address": "Teviot Place",
  "postcode": "EH8 9AG",
  "lat": 55.944439,
  "lng": -3.190297
}, {
  "name": "Underbelly, Cowgate",
  "slug": "underbelly-cowgate",
  "number": "61",
  "address": "66 Cowgate",
  "postcode": "EH1 1JX",
  "lat": 55.948166,
  "lng": -3.192293
}, {
  "name": "Underbelly, George Square",
  "slug": "underbelly-george-square",
  "number": "300",
  "address": "George Square",
  "postcode": "EH8 9LH",
  "lat": 55.94347,
  "lng": -3.189449
}, {
  "name": "Underbelly\u2019s Circus Hub on the Meadows",
  "slug": "underbelly-s-circus-hub-on-the-meadows",
  "number": "360",
  "address": "Middle Meadow Walk",
  "postcode": "EH9 9EX",
  "lat": 55.942062,
  "lng": -3.191469
}, {
  "name": "University of Edinburgh Main Library",
  "slug": "university-of-edinburgh-main-library",
  "number": "126",
  "address": "George Square",
  "postcode": "EH8 9LJ",
  "lat": 55.942722,
  "lng": -3.188796
}, {
  "name": "University of Edinburgh Playfair Library",
  "slug": "university-of-edinburgh-playfair-library",
  "number": "311",
  "address": "Old College",
  "postcode": "EH8 9YL",
  "lat": 55.947674,
  "lng": -3.186403
}, {
  "name": "Urbane Art Gallery",
  "slug": "urbane-art-gallery",
  "number": "109",
  "address": "25-27 Jeffrey St",
  "postcode": "EH1 1DH",
  "lat": 55.951286,
  "lng": -3.185423
}, {
  "name": "Valvona \u0026 Crolla",
  "slug": "valvona-crolla",
  "number": "67",
  "address": "19 Elm Row",
  "postcode": "EH7 4AA",
  "lat": 55.958508,
  "lng": -3.183539
}, {
  "name": "Valvona \u0026 Crolla Scottish Foodhall@Jenners",
  "slug": "valvona-crolla-scottish-foodhall-jenners",
  "number": "42",
  "address": "48 Princes Street",
  "postcode": "EH2 2YJ",
  "lat": 55.953213,
  "lng": -3.194212
}, {
  "name": "Venue 13",
  "slug": "venue-13",
  "number": "13",
  "address": "Lochend Close",
  "postcode": "EH8 8BL",
  "lat": 55.951794,
  "lng": -3.178056
}, {
  "name": "Venue150 at EICC",
  "slug": "venue150-at-eicc",
  "number": "150",
  "address": "150 Morrison Street",
  "postcode": "EH3 8EE",
  "lat": 55.945854,
  "lng": -3.209803
}, {
  "name": "Voodoo Rooms",
  "slug": "voodoo-rooms",
  "number": "68",
  "address": "West Register Street",
  "postcode": "EH2 2AA",
  "lat": 55.953667,
  "lng": -3.190609
}, {
  "name": "Waverley Bar",
  "slug": "waverley-bar",
  "number": "438",
  "address": "3-5 St Mary\u0027s St",
  "postcode": "EH1 1TA",
  "lat": 55.950462,
  "lng": -3.184242
}, {
  "name": "Wee Red Bar",
  "slug": "wee-red-bar-2",
  "number": "506",
  "address": "Edinburgh College of Art",
  "postcode": "EH3 9DF",
  "lat": 55.945621,
  "lng": -3.198115
}, {
  "name": "WHISKI Bar \u0026 Restaurant",
  "slug": "whiski-bar-restaurant",
  "number": "246",
  "address": "119 High Street",
  "postcode": "EH1 1SG",
  "lat": 55.950558,
  "lng": -3.186432
}, {
  "name": "Whistlebinkies",
  "slug": "whistlebinkies",
  "number": "158",
  "address": "4-6 South Bridge",
  "postcode": "EH1 1LL",
  "lat": 55.94994,
  "lng": -3.18725
}, {
  "name": "White Stuff",
  "slug": "white-stuff",
  "number": "205",
  "address": "89 George Street",
  "postcode": "EH2 3ES",
  "lat": 55.952885,
  "lng": -3.202259
}, {
  "name": "Woodland Creatures",
  "slug": "woodland-creatures",
  "number": "282",
  "address": "260-262 Leith Walk",
  "postcode": "EH6 5EL",
  "lat": 55.966438,
  "lng": -3.17578
}, {
  "name": "ZOO Charteris",
  "slug": "zoo-charteris",
  "number": "124",
  "address": "140 The Pleasance",
  "postcode": "EH8 9RR",
  "lat": 55.945683,
  "lng": -3.181118
}, {
  "name": "ZOO Southside",
  "slug": "zoo-southside",
  "number": "82",
  "address": "117 Nicolson Street",
  "postcode": "EH8 9ER",
  "lat": 55.944263,
  "lng": -3.183955
}]

